2025-03-22 12:33:05 - $GNGGA,193305.000,3756.417662,N,12221.493747,W,1,27,0.66,-5.062,M,-24.902,M,,*6B
2025-03-22 12:33:05 - $GNRMC,193305.000,A,3756.417662,N,12221.493747,W,0.007,330.77,220325,,,A,V*29
2025-03-22 12:33:05 - $GNGLL,3756.417662,N,12221.493747,W,193305.000,A,A*57
2025-03-22 12:33:05 - $GNVTG,330.77,T,,M,0.007,N,0.013,K,A*26
2025-03-22 12:33:05 - $GNGSA,A,3,06,11,12,14,17,19,22,24,25,,,,1.15,0.66,0.94,1*06
2025-03-22 12:33:05 - $GNGSA,A,3,76,77,78,87,88,,,,,,,,1.15,0.66,0.94,2*0B
2025-03-22 12:33:05 - $GNGSA,A,3,02,10,11,12,16,24,25,36,,,,,1.15,0.66,0.94,3*08
2025-03-22 12:33:05 - $GNGSA,A,3,23,27,28,37,43,,,,,,,,1.15,0.66,0.94,4*01
2025-03-22 12:33:05 - $GNGSA,A,3,,,,,,,,,,,,,1.15,0.66,0.94,5*0D
2025-03-22 12:33:05 - $GPGSV,3,1,10,06,63,091,33,11,55,163,20,12,44,312,25,14,05,112,19,1*64
2025-03-22 12:33:05 - $GPGSV,3,2,10,17,15,058,36,19,42,047,33,20,,,18,22,25,103,36,1*58
2025-03-22 12:33:05 - $GPGSV,3,3,10,24,53,243,22,25,10,302,16,1*60
2025-03-22 12:33:05 - $GPGSV,1,1,04,06,63,091,31,11,55,163,17,14,05,112,17,25,10,302,17,8*67
2025-03-22 12:33:05 - $GLGSV,2,1,05,76,25,130,27,77,71,100,19,78,38,327,25,87,62,030,25,1*7A
2025-03-22 12:33:05 - $GLGSV,2,2,05,88,51,215,20,1*4D
2025-03-22 12:33:05 - $GAGSV,2,1,07,02,28,303,21,10,51,066,30,11,63,119,25,12,31,046,30,7*71
2025-03-22 12:33:05 - $GAGSV,2,2,07,16,62,077,34,24,37,098,28,25,72,005,28,7*44
2025-03-22 12:33:05 - $GAGSV,2,1,06,10,51,066,26,12,31,046,24,16,62,077,28,24,37,098,19,1*76
2025-03-22 12:33:05 - $GAGSV,2,2,06,25,72,005,20,36,30,185,15,1*78
2025-03-22 12:33:05 - $GBGSV,2,1,05,23,20,139,11,27,61,227,22,28,69,047,24,37,71,154,17,1*79
2025-03-22 12:33:05 - $GBGSV,2,2,05,43,08,048,18,1*49
2025-03-22 12:33:05 - $GBGSV,1,1,04,23,20,139,22,28,69,047,30,37,71,154,20,43,08,048,22,5*78
2025-03-22 12:33:05 - $GQGSV,1,1,00,1*65
2025-03-22 12:33:05 - $GQGSV,1,1,00,8*6C
2025-03-22 12:33:06 - $GNGGA,193306.000,3756.417663,N,12221.493747,W,1,27,0.61,-5.061,M,-24.902,M,,*6D
2025-03-22 12:33:06 - $GNRMC,193306.000,A,3756.417663,N,12221.493747,W,0.008,330.77,220325,,,A,V*24
2025-03-22 12:33:06 - $GNGLL,3756.417663,N,12221.493747,W,193306.000,A,A*55
2025-03-22 12:33:06 - $GNVTG,330.77,T,,M,0.008,N,0.014,K,A*2E
2025-03-22 12:33:06 - $GNGSA,A,3,06,11,12,14,17,19,22,24,25,,,,1.02,0.61,0.82,1*00
2025-03-22 12:33:06 - $GNGSA,A,3,76,77,78,87,88,,,,,,,,1.02,0.61,0.82,2*0D
2025-03-22 12:33:06 - $GNGSA,A,3,02,10,11,12,16,24,25,36,,,,,1.02,0.61,0.82,3*0E
2025-03-22 12:33:06 - $GNGSA,A,3,23,27,28,37,43,,,,,,,,1.02,0.61,0.82,4*07
2025-03-22 12:33:06 - $GNGSA,A,3,,,,,,,,,,,,,1.02,0.61,0.82,5*0B
2025-03-22 12:33:06 - $GPGSV,3,1,10,06,63,091,33,11,55,163,22,12,44,312,25,14,05,112,20,1*6C
2025-03-22 12:33:06 - $GPGSV,3,2,10,17,15,058,36,19,42,047,33,20,,,17,22,25,103,36,1*57
2025-03-22 12:33:06 - $GPGSV,3,3,10,24,53,243,23,25,10,302,17,1*60
2025-03-22 12:33:06 - $GPGSV,1,1,04,06,63,091,31,11,55,163,17,14,05,112,17,25,10,302,17,8*67
2025-03-22 12:33:06 - $GLGSV,2,1,05,76,25,130,28,77,71,100,20,78,38,327,25,87,62,030,26,1*7C
2025-03-22 12:33:06 - $GLGSV,2,2,05,88,51,215,20,1*4D
2025-03-22 12:33:06 - $GAGSV,2,1,07,02,28,303,21,10,51,066,29,11,63,119,24,12,31,046,30,7*78
2025-03-22 12:33:06 - $GAGSV,2,2,07,16,62,077,33,24,37,098,30,25,72,005,28,7*4A
2025-03-22 12:33:06 - $GAGSV,2,1,06,10,51,066,27,12,31,046,24,16,62,077,27,24,37,098,19,1*78
2025-03-22 12:33:06 - $GAGSV,2,2,06,25,72,005,23,36,30,185,15,1*7B
2025-03-22 12:33:06 - $GBGSV,2,1,05,23,20,139,13,27,61,227,23,28,69,047,24,37,71,154,16,1*7B
2025-03-22 12:33:06 - $GBGSV,2,2,05,43,08,048,20,1*42
2025-03-22 12:33:06 - $GBGSV,1,1,04,23,20,139,23,28,69,047,30,37,71,154,20,43,08,048,23,5*78
2025-03-22 12:33:06 - $GQGSV,1,1,00,1*65
2025-03-22 12:33:06 - $GQGSV,1,1,00,8*6C
2025-03-22 12:33:07 - $GNGGA,193307.000,3756.417663,N,12221.493747,W,1,27,0.61,-5.061,M,-24.902,M,,*6C
2025-03-22 12:33:07 - $GNRMC,193307.000,A,3756.417663,N,12221.493747,W,0.002,330.77,220325,,,A,V*2F
2025-03-22 12:33:07 - $GNGLL,3756.417663,N,12221.493747,W,193307.000,A,A*54
2025-03-22 12:33:07 - $GNVTG,330.77,T,,M,0.002,N,0.005,K,A*24
2025-03-22 12:33:07 - $GNGSA,A,3,06,11,12,14,17,19,22,24,25,,,,1.02,0.61,0.82,1*00
2025-03-22 12:33:07 - $GNGSA,A,3,76,77,78,87,88,,,,,,,,1.02,0.61,0.82,2*0D
2025-03-22 12:33:07 - $GNGSA,A,3,02,10,11,12,16,24,25,36,,,,,1.02,0.61,0.82,3*0E
2025-03-22 12:33:07 - $GNGSA,A,3,23,27,28,37,43,,,,,,,,1.02,0.61,0.82,4*07
2025-03-22 12:33:07 - $GNGSA,A,3,,,,,,,,,,,,,1.02,0.61,0.82,5*0B
2025-03-22 12:33:07 - $GPGSV,3,1,10,06,63,091,33,11,55,163,22,12,44,312,24,14,05,112,20,1*6D
2025-03-22 12:33:07 - $GPGSV,3,2,10,17,15,058,36,19,42,047,33,20,,,18,22,25,103,36,1*58
2025-03-22 12:33:07 - $GPGSV,3,3,10,24,53,242,21,25,10,302,17,1*63
2025-03-22 12:33:07 - $GPGSV,1,1,04,06,63,091,32,11,55,163,17,14,05,112,17,25,10,302,17,8*64
2025-03-22 12:33:07 - $GLGSV,2,1,05,76,25,130,25,77,71,100,19,78,38,327,26,87,62,030,24,1*7A
2025-03-22 12:33:07 - $GLGSV,2,2,05,88,51,215,21,1*4C
2025-03-22 12:33:07 - $GAGSV,2,1,07,02,28,303,22,10,51,066,32,11,63,119,27,12,31,046,31,7*73
2025-03-22 12:33:07 - $GAGSV,2,2,07,16,62,077,34,24,37,098,31,25,72,005,29,7*4D
2025-03-22 12:33:07 - $GAGSV,2,1,06,10,51,066,28,12,31,046,24,16,62,077,28,24,37,098,20,1*72
2025-03-22 12:33:07 - $GAGSV,2,2,06,25,72,005,22,36,30,185,16,1*79
2025-03-22 12:33:07 - $GBGSV,2,1,05,23,20,139,12,27,61,227,22,28,69,047,23,37,71,154,16,1*7C
2025-03-22 12:33:07 - $GBGSV,2,2,05,43,08,048,19,1*48
2025-03-22 12:33:07 - $GBGSV,1,1,04,23,20,139,23,28,69,047,29,37,71,154,20,43,08,048,23,5*70
2025-03-22 12:33:07 - $GQGSV,1,1,00,1*65
2025-03-22 12:33:07 - $GQGSV,1,1,00,8*6C
2025-03-22 12:33:08 - $GNGGA,193308.000,3756.417662,N,12221.493746,W,1,28,0.69,-5.059,M,-24.902,M,,*6F
2025-03-22 12:33:08 - $GNRMC,193308.000,A,3756.417662,N,12221.493746,W,0.009,330.77,220325,,,A,V*2B
2025-03-22 12:33:08 - $GNGLL,3756.417662,N,12221.493746,W,193308.000,A,A*5B
2025-03-22 12:33:08 - $GNVTG,330.77,T,,M,0.009,N,0.017,K,A*2C
2025-03-22 12:33:08 - $GNGSA,A,3,06,11,12,14,17,19,22,24,25,,,,1.21,0.69,1.00,1*02
2025-03-22 12:33:08 - $GNGSA,A,3,76,77,78,87,88,,,,,,,,1.21,0.69,1.00,2*0F
2025-03-22 12:33:08 - $GNGSA,A,3,02,08,10,11,12,16,24,25,36,,,,1.21,0.69,1.00,3*04
2025-03-22 12:33:08 - $GNGSA,A,3,23,27,28,37,43,,,,,,,,1.21,0.69,1.00,4*05
2025-03-22 12:33:08 - $GNGSA,A,3,,,,,,,,,,,,,1.21,0.69,1.00,5*09
2025-03-22 12:33:08 - $GPGSV,3,1,10,06,63,091,33,11,55,163,22,12,44,312,24,14,05,112,20,1*6D
2025-03-22 12:33:08 - $GPGSV,3,2,10,17,15,058,36,19,42,047,33,20,,,18,22,25,103,36,1*58
2025-03-22 12:33:08 - $GPGSV,3,3,10,24,53,242,22,25,10,302,18,1*6F
2025-03-22 12:33:08 - $GPGSV,1,1,04,06,63,091,31,11,55,163,14,14,05,112,16,25,10,302,15,8*67
2025-03-22 12:33:08 - $GLGSV,2,1,05,76,25,130,26,77,71,100,19,78,38,327,25,87,62,030,25,1*7B
2025-03-22 12:33:08 - $GLGSV,2,2,05,88,51,215,20,1*4D
2025-03-22 12:33:08 - $GAGSV,2,1,08,02,28,303,21,08,11,294,20,10,51,066,28,11,63,119,26,7*71
2025-03-22 12:33:08 - $GAGSV,2,2,08,12,31,046,29,16,62,077,32,24,37,098,30,25,72,005,28,7*7C
2025-03-22 12:33:08 - $GAGSV,2,1,06,10,51,066,26,12,31,046,23,16,62,077,27,24,37,098,19,1*7E
2025-03-22 12:33:08 - $GAGSV,2,2,06,25,72,005,21,36,30,185,14,1*78
2025-03-22 12:33:08 - $GBGSV,2,1,05,23,20,139,14,27,61,227,23,28,69,047,23,37,71,154,17,1*7A
2025-03-22 12:33:08 - $GBGSV,2,2,05,43,08,048,19,1*48
2025-03-22 12:33:08 - $GBGSV,1,1,04,23,20,139,22,28,69,047,29,37,71,154,20,43,08,048,20,5*72
2025-03-22 12:33:08 - $GQGSV,1,1,00,1*65
2025-03-22 12:33:08 - $GQGSV,1,1,00,8*6C
2025-03-22 12:33:09 - $GNGGA,193309.000,3756.417662,N,12221.493745,W,1,28,0.64,-5.060,M,-24.902,M,,*6A
2025-03-22 12:33:09 - $GNRMC,193309.000,A,3756.417662,N,12221.493745,W,0.003,330.77,220325,,,A,V*23
2025-03-22 12:33:09 - $GNGLL,3756.417662,N,12221.493745,W,193309.000,A,A*59
2025-03-22 12:33:09 - $GNVTG,330.77,T,,M,0.003,N,0.006,K,A*26
2025-03-22 12:33:09 - $GNGSA,A,3,06,11,12,14,17,19,22,24,25,,,,1.07,0.64,0.85,1*07
2025-03-22 12:33:09 - $GNGSA,A,3,76,77,78,87,88,,,,,,,,1.07,0.64,0.85,2*0A
2025-03-22 12:33:09 - $GNGSA,A,3,02,08,10,11,12,16,24,25,36,,,,1.07,0.64,0.85,3*01
2025-03-22 12:33:09 - $GNGSA,A,3,23,27,28,37,43,,,,,,,,1.07,0.64,0.85,4*00
2025-03-22 12:33:09 - $GNGSA,A,3,,,,,,,,,,,,,1.07,0.64,0.85,5*0C
2025-03-22 12:33:09 - $GPGSV,3,1,10,06,63,091,32,11,55,163,21,12,44,312,25,14,05,112,21,1*6F
2025-03-22 12:33:09 - $GPGSV,3,2,10,17,15,058,36,19,42,047,34,20,,,17,22,25,103,35,1*53
2025-03-22 12:33:09 - $GPGSV,3,3,10,24,53,242,22,25,10,302,17,1*60
2025-03-22 12:33:09 - $GPGSV,1,1,04,06,63,091,31,11,55,163,18,14,05,112,17,25,10,302,17,8*68
2025-03-22 12:33:09 - $GLGSV,2,1,05,76,25,130,26,77,71,100,19,78,38,327,25,87,62,030,25,1*7B
2025-03-22 12:33:09 - $GLGSV,2,2,05,88,51,215,20,1*4D
2025-03-22 12:33:09 - $GAGSV,2,1,08,02,28,303,20,08,11,294,16,10,51,066,30,11,63,119,26,7*7C
2025-03-22 12:33:09 - $GAGSV,2,2,08,12,31,046,32,16,62,077,34,24,37,098,30,25,72,005,29,7*71
2025-03-22 12:33:09 - $GAGSV,2,1,06,10,51,066,28,12,31,046,25,16,62,077,28,24,37,098,19,1*79
2025-03-22 12:33:09 - $GAGSV,2,2,06,25,72,005,22,36,30,185,15,1*7A
2025-03-22 12:33:09 - $GBGSV,2,1,05,23,20,139,14,27,61,227,23,28,69,047,23,37,71,154,14,1*79
2025-03-22 12:33:09 - $GBGSV,2,2,05,43,08,048,19,1*48
2025-03-22 12:33:09 - $GBGSV,1,1,04,23,20,139,24,28,69,047,30,37,71,154,19,43,08,048,21,5*77
2025-03-22 12:33:09 - $GQGSV,1,1,00,1*65
2025-03-22 12:33:09 - $GQGSV,1,1,00,8*6C
2025-03-22 12:33:10 - $GNGGA,193310.000,3756.417663,N,12221.493745,W,1,27,0.64,-5.061,M,-24.903,M,,*6C
2025-03-22 12:33:10 - $GNRMC,193310.000,A,3756.417663,N,12221.493745,W,0.013,330.77,220325,,,A,V*2B
2025-03-22 12:33:10 - $GNGLL,3756.417663,N,12221.493745,W,193310.000,A,A*50
2025-03-22 12:33:10 - $GNVTG,330.77,T,,M,0.013,N,0.024,K,A*27
2025-03-22 12:33:10 - $GNGSA,A,3,06,11,12,14,17,19,22,24,25,,,,1.07,0.64,0.85,1*07
2025-03-22 12:33:10 - $GNGSA,A,3,76,77,78,87,88,,,,,,,,1.07,0.64,0.85,2*0A
2025-03-22 12:33:10 - $GNGSA,A,3,02,10,11,12,16,24,25,36,,,,,1.07,0.64,0.85,3*09
2025-03-22 12:33:10 - $GNGSA,A,3,23,27,28,37,43,,,,,,,,1.07,0.64,0.85,4*00
2025-03-22 12:33:10 - $GNGSA,A,3,,,,,,,,,,,,,1.07,0.64,0.85,5*0C
2025-03-22 12:33:10 - $GPGSV,3,1,10,06,63,091,33,11,55,163,19,12,44,312,24,14,05,112,19,1*6F
2025-03-22 12:33:10 - $GPGSV,3,2,10,17,15,058,36,19,42,047,33,20,,,18,22,25,103,35,1*5B
2025-03-22 12:33:10 - $GPGSV,3,3,10,24,53,242,22,25,10,302,17,1*60
2025-03-22 12:33:10 - $GPGSV,1,1,04,06,63,091,31,11,55,163,17,14,05,112,17,25,10,302,18,8*68
2025-03-22 12:33:10 - $GLGSV,2,1,05,76,25,130,25,77,71,100,19,78,38,327,27,87,62,030,25,1*7A
2025-03-22 12:33:10 - $GLGSV,2,2,05,88,51,215,19,1*47
2025-03-22 12:33:10 - $GAGSV,2,1,07,02,28,303,23,10,51,066,30,11,63,119,26,12,31,046,30,7*70
2025-03-22 12:33:10 - $GAGSV,2,2,07,16,62,077,35,24,37,098,30,25,72,005,29,7*4D
2025-03-22 12:33:10 - $GAGSV,2,1,06,10,51,066,27,12,31,046,25,16,62,077,28,24,37,098,19,1*76
2025-03-22 12:33:10 - $GAGSV,2,2,06,25,72,005,22,36,30,185,13,1*7C
2025-03-22 12:33:10 - $GBGSV,2,1,05,23,20,139,12,27,61,227,23,28,69,047,24,37,71,154,15,1*79
2025-03-22 12:33:10 - $GBGSV,2,2,05,43,08,048,20,1*42
2025-03-22 12:33:10 - $GBGSV,1,1,04,23,20,139,23,28,69,047,30,37,71,154,20,43,08,048,21,5*7A
2025-03-22 12:33:10 - $GQGSV,1,1,00,1*65
2025-03-22 12:33:10 - $GQGSV,1,1,00,8*6C
